[
  {
    "city": "London",
    "lat": 51.5074,
    "lng": -0.1278
  },
  {
    "city": "Amsterdam",
    "lat": 52.3676,
    "lng": 4.9041
  },
  {
    "city": "Vienna",
    "lat": 48.2082,
    "lng": 16.3738
  },
  {
    "city": "Berlin",
    "lat": 52.52,
    "lng": 13.405
  },
  {
    "city": "Los Angeles",
    "lat": 34.0522,
    "lng": -118.2437
  },
  {
    "city": "Paris",
    "lat": 48.8566,
    "lng": 2.3522
  },
  {
    "city": "Barcelona",
    "lat": 41.3851,
    "lng": 2.1734
  },
  {
    "city": "Shanghai",
    "lat": 31.2304,
    "lng": 121.4737
  },
  {
    "city": "Dublin",
    "lat": 53.3498,
    "lng": -6.2603
  }
]
